[
    {
        "AffiliationID": 1,
        "Affiliation_Name": "ABC Corporation",
        "GridID": "grid.123456.a",
        "Official_Page": "https://example.com/abc",
        "ISO3166Code": "US",
        "Latitude": 40.7128,
        "Longitude": -74.0060,
        "H-index": 75,
        "Productivity": 1200,
        "Average_C10": 18.5,
        "Average_LogC10": 2.15
    },
    {
        "AffiliationID": 2,
        "Affiliation_Name": "XYZ Institute",
        "GridID": "grid.987654.x",
        "Official_Page": "https://example.com/xyz",
        "ISO3166Code": "CA",
        "Latitude": 43.65107,
        "Longitude": -79.347015,
        "H-index": 60,
        "Productivity": 800,
        "Average_C10": 12.8,
        "Average_LogC10": 1.92
    },
    {
        "AffiliationID": 3,
        "Affiliation_Name": "Global Tech",
        "GridID": "grid.789012.g",
        "Official_Page": "https://example.com/global",
        "ISO3166Code": "UK",
        "Latitude": 51.5074,
        "Longitude": -0.1278,
        "H-index": 80,
        "Productivity": 1500,
        "Average_C10": 20.3,
        "Average_LogC10": 2.25
    },
    {
        "AffiliationID": 4,
        "Affiliation_Name": "Tech Innovations",
        "GridID": "grid.345678.t",
        "Official_Page": "https://example.com/tech",
        "ISO3166Code": "DE",
        "Latitude": 52.5200,
        "Longitude": 13.4050,
        "H-index": 70,
        "Productivity": 1300,
        "Average_C10": 17.2,
        "Average_LogC10": 2.05
    },
    {
        "AffiliationID": 5,
        "Affiliation_Name": "Innovation Hub",
        "GridID": "grid.567890.i",
        "Official_Page": "https://example.com/hub",
        "ISO3166Code": "FR",
        "Latitude": 48.8566,
        "Longitude": 2.3522,
        "H-index": 85,
        "Productivity": 1700,
        "Average_C10": 22.1,
        "Average_LogC10": 2.35
    },
    {
        "AffiliationID": 6,
        "Affiliation_Name": "Research Lab",
        "GridID": "grid.234567.r",
        "Official_Page": "https://example.com/lab",
        "ISO3166Code": "JP",
        "Latitude": 35.6895,
        "Longitude": 139.6917,
        "H-index": 65,
        "Productivity": 1400,
        "Average_C10": 16.9,
        "Average_LogC10": 2.12
    },
    {
        "AffiliationID": 7,
        "Affiliation_Name": "Data Analytics Inc.",
        "GridID": "grid.876543.d",
        "Official_Page": "https://example.com/analytics",
        "ISO3166Code": "AU",
        "Latitude": -33.8688,
        "Longitude": 151.2093,
        "H-index": 55,
        "Productivity": 1000,
        "Average_C10": 14.5,
        "Average_LogC10": 1.85
    },
    {
        "AffiliationID": 8,
        "Affiliation_Name": "Advanced Solutions",
        "GridID": "grid.654321.a",
        "Official_Page": "https://example.com/solutions",
        "ISO3166Code": "IT",
        "Latitude": 41.9028,
        "Longitude": 12.4964,
        "H-index": 75,
        "Productivity": 1600,
        "Average_C10": 19.6,
        "Average_LogC10": 2.20
    },
    {
        "AffiliationID": 9,
        "Affiliation_Name": "Science Foundation",
        "GridID": "grid.543210.s",
        "Official_Page": "https://example.com/foundation",
        "ISO3166Code": "ES",
        "Latitude": 40.4168,
        "Longitude": -3.7038,
        "H-index": 65,
        "Productivity": 1200,
        "Average_C10": 18.1,
        "Average_LogC10": 2.05
    },
    {
        "AffiliationID": 10,
        "Affiliation_Name": "Innovative Research",
        "GridID": "grid.012345.i",
        "Official_Page": "https://example.com/research",
        "ISO3166Code": "NL",
        "Latitude": 52.3676,
        "Longitude": 4.9041,
        "H-index": 70,
        "Productivity": 1400,
        "Average_C10": 17.8,
        "Average_LogC10": 2.10
    },
    {
        "AffiliationID": 11,
        "Affiliation_Name": "Tech Solutions Ltd.",
        "GridID": "grid.111222.t",
        "Official_Page": "https://example.com/techsolutions",
        "ISO3166Code": "CA",
        "Latitude": 45.4215,
        "Longitude": -75.6919,
        "H-index": 60,
        "Productivity": 1000,
        "Average_C10": 15.2,
        "Average_LogC10": 1.95
    },
    {
        "AffiliationID": 12,
        "Affiliation_Name": "Innovative Technologies",
        "GridID": "grid.222333.i",
        "Official_Page": "https://example.com/innovative",
        "ISO3166Code": "DE",
        "Latitude": 51.1657,
        "Longitude": 10.4515,
        "H-index": 80,
        "Productivity": 1600,
        "Average_C10": 19.4,
        "Average_LogC10": 2.25
    },
    {
        "AffiliationID": 13,
        "Affiliation_Name": "Data Science Inc.",
        "GridID": "grid.333444.d",
        "Official_Page": "https://example.com/datascience",
        "ISO3166Code": "US",
        "Latitude": 37.7749,
        "Longitude": -122.4194,
        "H-index": 70,
        "Productivity": 1400,
        "Average_C10": 17.9,
        "Average_LogC10": 2.10
    },
    {
        "AffiliationID": 14,
        "Affiliation_Name": "Research Innovations",
        "GridID": "grid.444555.r",
        "Official_Page": "https://example.com/researchinnovations",
        "ISO3166Code": "UK",
        "Latitude": 51.5074,
        "Longitude": -0.1278,
        "H-index": 85,
        "Productivity": 1700,
        "Average_C10": 22.0,
        "Average_LogC10": 2.30
    },
    {
        "AffiliationID": 15,
        "Affiliation_Name": "Advanced Data Analytics",
        "GridID": "grid.555666.a",
        "Official_Page": "https://example.com/dataanalytics",
        "ISO3166Code": "AU",
        "Latitude": -33.8688,
        "Longitude": 151.2093,
        "H-index": 65,
        "Productivity": 1300,
        "Average_C10": 17.0,
        "Average_LogC10": 2.00
    },
    {
        "AffiliationID": 16,
        "Affiliation_Name": "Tech Innovations",
        "GridID": "grid.666777.t",
        "Official_Page": "https://example.com/techinnovations",
        "ISO3166Code": "IT",
        "Latitude": 41.9028,
        "Longitude": 12.4964,
        "H-index": 75,
        "Productivity": 1500,
        "Average_C10": 18.8,
        "Average_LogC10": 2.15
    },
    {
        "AffiliationID": 17,
        "Affiliation_Name": "Research Solutions",
        "GridID": "grid.777888.r",
        "Official_Page": "https://example.com/researchsolutions",
        "ISO3166Code": "ES",
        "Latitude": 40.4168,
        "Longitude": -3.7038,
        "H-index": 70,
        "Productivity": 1400,
        "Average_C10": 17.5,
        "Average_LogC10": 2.05
    },
    {
        "AffiliationID": 18,
        "Affiliation_Name": "Data Tech Ltd.",
        "GridID": "grid.888999.d",
        "Official_Page": "https://example.com/datatech",
        "ISO3166Code": "NL",
        "Latitude": 52.3676,
        "Longitude": 4.9041,
        "H-index": 60,
        "Productivity": 1100,
        "Average_C10": 15.9,
        "Average_LogC10": 1.90
    },
    {
        "AffiliationID": 19,
        "Affiliation_Name": "Innovative Research Foundation",
        "GridID": "grid.999000.i",
        "Official_Page": "https://example.com/researchfoundation",
        "ISO3166Code": "FR",
        "Latitude": 48.8566,
        "Longitude": 2.3522,
        "H-index": 80,
        "Productivity": 1600,
        "Average_C10": 20.0,
        "Average_LogC10": 2.20
    },
    {
        "AffiliationID": 20,
        "Affiliation_Name": "Science Hub",
        "GridID": "grid.000111.s",
        "Official_Page": "https://example.com/sciencehub",
        "ISO3166Code": "JP",
        "Latitude": 35.6895,
        "Longitude": 139.6917,
        "H-index": 65,
        "Productivity": 1300,
        "Average_C10": 17.2,
        "Average_LogC10": 2.05
    }
]
